ID,City,Cloudiness,Country,Date,Humidity,Lat,Long,Max Temp,Wind Speed
4030556,Rikitea,92,PF,1533875964,99,-23.12,-134.97,74.45,15.79
3421193,Paamiut,0,GL,1533875844,95,61.99,-49.67,42.32,8.41
3874787,Punta Arenas,40,CL,1533873600,96,-53.16,-70.91,32.0,8.05
6201424,Mataura,0,NZ,1533875713,91,-46.19,168.86,43.13,2.82
104515,Mecca,8,SA,1533875968,40,21.43,39.83,92.27,4.16
2022572,Khatanga,0,RU,1533875769,71,71.98,102.47,64.46,17.47
5969785,Hamilton,20,CA,1533873600,100,43.26,-79.87,73.4,4.7
2069194,Jamestown,0,AU,1533875717,29,-33.21,138.6,62.93,19.93
3026644,Souillac,0,FR,1533875400,93,45.6,-0.6,51.8,4.7
5106834,Albany,20,US,1533873240,73,42.65,-73.75,69.8,6.93
1786855,Rongcheng,0,CN,1533875975,69,37.16,122.42,88.31,11.43
3557758,Guane,44,CU,1533875976,91,22.2,-84.09,78.05,5.17
1788268,Dongsheng,36,CN,1533875977,66,29.72,112.52,97.13,4.61
3378644,Georgetown,0,GY,1533873600,94,6.8,-58.16,77.0,4.61
4732862,Nome,1,US,1533874500,88,30.04,-94.42,80.6,7.29
1106677,Bambous Virieux,40,MU,1533873600,73,-20.34,57.76,71.6,6.93
3897774,Buin,0,CL,1533873600,66,-33.73,-70.74,55.4,4.7
383388,Siaya,75,KE,1533870000,82,0.06,34.29,66.2,8.05
3424607,Tasiilaq,92,GL,1533873000,70,65.61,-37.64,46.4,18.34
2110227,Butaritari,8,KI,1533875986,100,3.07,172.79,83.99,6.29
588365,Vao,0,EE,1533875778,65,59.1,26.19,74.18,9.42
1865309,Katsuura,40,JP,1533874680,56,33.93,134.5,93.2,6.93
4020109,Atuona,88,PF,1533875991,98,-9.8,-139.03,80.03,16.46
1242110,Kalmunai,64,LK,1533875992,59,7.42,81.82,89.21,4.94
1006984,East London,75,ZA,1533873600,81,-33.02,27.91,51.8,10.29
1523662,Kachiry,8,KZ,1533875994,41,53.07,76.1,90.83,9.64
1507390,Dikson,100,RU,1533875995,86,73.51,80.55,47.81,6.73
3366880,Hermanus,80,ZA,1533875996,99,-34.42,19.24,43.22,0.81
3863379,Mar del Plata,80,AR,1533875738,77,-46.43,-67.52,43.58,2.15
2155415,New Norfolk,75,AU,1533873600,44,-42.78,147.06,60.8,28.86
2092164,Lorengau,0,PG,1533875811,91,-2.02,147.27,85.97,11.77
5072006,Lincoln,1,US,1533874500,78,40.8,-96.67,80.6,5.82
964432,Port Alfred,32,ZA,1533876002,100,-33.59,26.89,54.11,7.18
1633419,Padang,0,ID,1533875850,100,-0.92,100.36,82.46,4.72
6071421,Meadow Lake,0,CA,1533876004,81,54.13,-108.44,69.23,3.71
3418910,Upernavik,80,GL,1533876005,98,72.79,-56.15,38.63,2.93
4011743,Constitucion,90,MX,1533873540,82,23.99,-104.67,62.6,3.36
1259385,Port Blair,92,IN,1533875855,100,11.67,92.75,78.86,22.84
2191562,Dunedin,0,NZ,1533875982,90,-45.87,170.5,41.87,2.59
2108502,Honiara,68,SB,1533876010,87,-9.43,159.96,78.23,3.71
1733782,Victoria,75,BN,1533873600,74,5.28,115.24,89.6,3.36
3421719,Narsaq,12,GL,1533873000,81,60.91,-46.05,44.6,4.7
3421982,Maniitsoq,0,GL,1533876014,87,65.42,-52.9,42.32,4.16
2163355,Hobart,75,AU,1533873600,44,-42.88,147.33,60.8,28.86
3896218,Castro,68,CL,1533876017,99,-42.48,-73.76,45.29,2.71
3652764,Puerto Ayora,24,EC,1533875754,100,-0.74,-90.35,70.13,11.77
2128975,Nemuro,75,JP,1533873600,100,43.32,145.57,60.8,12.75
1014034,Carnarvon,76,ZA,1533875767,98,-30.97,22.13,32.06,12.21
6089245,Norman Wells,90,CA,1533873600,100,65.28,-126.83,46.4,12.75
344979,Lebu,36,ET,1533876023,63,8.96,38.73,64.37,3.71
3427761,Tigre,75,AR,1533873600,65,-34.42,-58.58,46.4,5.82
1737714,Limbang,75,BN,1533875400,62,4.75,115.01,89.6,4.7
3723779,Jacmel,24,HT,1533876026,100,18.24,-72.54,80.39,11.65
3833367,Ushuaia,40,AR,1533873600,70,-54.81,-68.31,42.8,8.05
5367788,Lompoc,1,US,1533873480,87,34.64,-120.46,77.0,4.7
2132606,Samarai,92,PG,1533876029,100,-10.62,150.67,78.14,14.45
3924674,Xapuri,8,BR,1533876030,63,-10.65,-68.5,69.86,4.72
2057087,Kupang,40,ID,1533871800,52,-10.16,123.6,87.8,17.22
6096551,Pangnirtung,100,CA,1533875816,67,66.15,-65.72,48.26,20.71
2120591,Tilichiki,92,RU,1533875753,100,60.47,166.1,53.03,5.17
3921141,Charagua,0,BO,1533876035,74,-19.79,-63.2,44.39,3.04
1715015,Dicabisagan,92,PH,1533876036,90,17.08,122.42,84.8,6.29
2126199,Cherskiy,0,RU,1533875755,59,68.75,161.3,54.83,4.83
2126710,Beringovskiy,32,RU,1533876039,98,63.05,179.32,47.36,15.9
3465010,Cunha,44,BR,1533876040,86,-23.08,-44.96,63.11,6.51
3421765,Nanortalik,68,GL,1533876041,98,60.14,-45.24,42.59,4.5
3353715,Outjo,0,NA,1533876043,69,-20.11,16.16,30.71,2.93
2122614,Okha,0,RU,1533876044,72,53.59,142.95,62.3,15.01
2337542,Naze,92,NG,1533876045,97,5.43,7.07,71.93,3.15
5855927,Hilo,90,US,1533873720,88,19.71,-155.08,78.8,4.7
2112539,Iwaki,75,JP,1533873600,58,37.05,140.89,87.8,3.36
1079048,Ambovombe,0,MG,1533876048,86,-25.18,46.09,70.67,20.04
2303611,Axim,92,GH,1533876013,100,4.87,-2.24,76.61,11.43
4031637,Lavrentiya,92,RU,1533875835,94,65.58,-170.99,46.64,15.46
1015776,Bredasdorp,92,ZA,1533873600,93,-34.53,20.04,37.4,3.36
2075265,Busselton,80,AU,1533875934,100,-33.64,115.35,58.16,16.8
3894426,Coihaique,36,CL,1533873600,93,-45.58,-72.07,39.2,5.82
3369157,Cape Town,0,ZA,1533873600,81,-33.93,18.42,46.4,2.24
5848280,Kapaa,90,US,1533873360,94,22.08,-159.32,84.2,16.11
515873,Oktyabrskiy,0,RU,1533873600,77,55.61,37.97,60.8,6.71
3437029,San Patricio,0,PY,1533876058,88,-26.98,-56.83,39.44,2.59
2525041,Cefalu,0,IT,1533876060,82,38.04,14.02,70.67,1.14
336745,Gewane,92,ET,1533876061,99,10.16,40.66,69.59,3.94
3885456,La Ligua,90,CL,1533873600,87,-32.45,-71.23,51.8,2.82
2313002,Matadi,48,CD,1533876064,100,-5.83,13.46,65.72,4.16
3652462,San Cristobal,75,EC,1533873600,93,-0.39,-78.55,48.2,13.87
2033370,Yingkou,0,CN,1533876066,65,40.67,122.24,89.57,8.97
3359638,Walvis Bay,0,NA,1533876067,100,-22.95,14.51,52.22,16.13
1802013,Yizheng,12,CN,1533876069,94,24.67,103.43,72.29,3.27
1505965,Igrim,0,RU,1533876071,65,63.19,64.42,64.19,3.6
4032420,Neiafu,20,TO,1533873600,69,-18.65,-173.98,75.2,4.7
5847486,Kailua,90,US,1533873420,88,21.39,-157.74,84.2,17.22
2027004,Bayanday,92,RU,1533876074,92,53.07,105.52,57.71,3.71
1054329,Vangaindrano,92,MG,1533876075,100,-23.35,47.6,65.72,4.61
4407665,Kodiak,1,US,1533873180,94,39.95,-94.76,69.8,6.06
2146219,Hervey Bay,0,AU,1533876060,85,-25.3,152.85,68.78,9.64
556396,Inderka,0,RU,1533876078,67,53.25,46.26,65.0,6.17
5880568,Bethel,90,US,1533873180,81,60.79,-161.76,53.6,3.36
1250161,Batticaloa,68,LK,1533876081,73,7.71,81.69,89.03,18.25
3573739,Esperance,20,TT,1533873600,94,10.24,-61.45,75.2,4.38
6167817,Torbay,90,CA,1533873600,93,47.66,-52.73,57.2,13.87
4036284,Alofi,0,NU,1533873600,60,-19.06,-169.92,75.2,9.17
2015306,Tiksi,0,RU,1533876085,68,71.64,128.87,62.66,6.96
2175403,Bluff,0,AU,1533876087,21,-23.58,149.07,74.36,6.96
964712,Plettenberg Bay,92,ZA,1533876088,100,-34.05,23.37,54.56,19.26
262462,Saint George,20,GR,1533874800,64,39.45,22.34,69.8,4.7
6170031,Tuktoyaktuk,90,CA,1533873600,70,69.44,-133.03,42.8,13.87
5359864,Isla Vista,1,US,1533873360,88,34.41,-119.86,77.0,3.36
3374083,Bathsheba,40,BB,1533873600,78,13.22,-59.52,80.6,12.75
2101169,Aitape,0,PG,1533876094,84,-3.15,142.36,84.8,6.62
1254709,Tezu,48,IN,1533876095,79,27.93,96.16,76.34,1.7
5803990,Moses Lake,1,US,1533873180,22,47.13,-119.28,89.6,6.93
4501427,Port Elizabeth,1,US,1533873360,94,39.31,-74.98,78.8,7.18
2013279,Vostok,92,RU,1533876099,61,46.45,135.83,72.56,2.37
1519385,Sergeyevka,64,KZ,1533876100,89,53.88,67.42,65.27,12.55
2094342,Kavieng,56,PG,1533876101,100,-2.57,150.8,83.36,9.75
7647007,San Carlos de Bariloche,75,AR,1533873600,100,-41.13,-71.31,32.0,6.93
3698304,Chimbote,36,PE,1533876103,100,-9.08,-78.59,58.43,6.4
546105,Nikolskoye,0,RU,1533873600,68,59.7,30.79,71.6,8.95
884927,Mutoko,0,ZW,1533875904,79,-17.4,32.23,61.49,3.94
1651810,Airai,76,TL,1533876110,45,-8.93,125.41,83.27,1.36
3985710,Cabo San Lucas,20,MX,1533872400,78,22.89,-109.91,80.6,8.3
6185377,Yellowknife,75,CA,1533873600,63,62.45,-114.38,64.4,6.93
286621,Salalah,90,OM,1533873000,100,17.01,54.1,77.0,5.82
5887214,Arnprior,20,CA,1533873600,64,45.44,-76.36,69.8,10.29
1644605,Galesong,20,ID,1533875400,52,-5.32,119.37,91.4,11.41
1273574,Vaini,88,IN,1533876117,98,15.34,74.49,71.21,7.29
3471451,Arraial do Cabo,12,BR,1533876118,100,-22.97,-42.02,68.33,10.65
2038067,Chifeng,0,CN,1533876119,71,42.27,118.96,78.14,3.6
1524298,Aksu,0,KZ,1533873600,45,52.04,76.93,84.2,11.18
4696310,Harper,1,US,1533874500,78,30.3,-99.24,77.0,4.83
2119283,Zyryanka,0,RU,1533876122,52,65.73,150.89,62.03,3.38
1895695,Kushima,20,JP,1533873600,79,31.5,131.29,87.8,8.05
1856057,Nakamura,40,JP,1533873600,74,35.17,136.87,87.8,9.17
2178753,Kirakira,88,SB,1533876126,100,-10.46,161.92,79.76,15.23
3833062,Venado Tuerto,8,AR,1533876009,76,-33.75,-61.97,31.61,3.27
3416888,Grindavik,90,IS,1533873600,81,63.84,-22.43,48.2,2.24
3347019,Namibe,0,AO,1533876130,100,-15.19,12.15,64.19,5.73
2035715,Mudanjiang,36,CN,1533876133,87,44.58,129.6,73.37,4.16
2129072,Kushiro,75,JP,1533873600,77,43.11,144.15,69.8,12.75
3833859,Barrow,56,AR,1533876136,84,-38.31,-60.23,31.79,2.71
3423146,Ilulissat,68,GL,1533873000,93,69.22,-51.1,37.4,3.36
1815024,Hutang,0,CN,1533876138,39,29.22,119.85,98.93,6.4
3860443,Comodoro Rivadavia,0,AR,1533873600,50,-45.87,-67.48,51.8,3.36
4031574,Provideniya,75,RU,1533873600,76,64.42,-173.23,48.2,11.18
3461370,Imbituba,0,BR,1533873600,58,-28.24,-48.67,57.2,11.41
2640006,Portree,92,GB,1533876118,100,57.41,-6.19,51.95,4.61
556268,Ostrovnoy,88,RU,1533876145,100,68.05,39.51,52.4,12.66
3571592,Rock Sound,0,BS,1533876146,100,24.9,-76.2,82.64,6.62
5924351,Clyde River,90,CA,1533874260,100,70.47,-68.59,39.2,12.75
2127202,Anadyr,75,RU,1533873600,57,64.73,177.51,50.0,11.18
2060886,Subiaco,40,AU,1533875400,62,-31.95,115.83,57.2,12.75
6067959,Mattawa,1,CA,1533873600,93,46.32,-78.7,53.6,3.36
5677735,Sidney,1,US,1533874500,53,47.72,-104.16,77.0,3.36
3372707,Ribeira Grande,80,PT,1533876153,100,38.52,-28.7,72.83,9.08
2418437,Kouroussa,92,GN,1533876154,98,10.65,-9.88,69.23,10.2
2618795,Klaksvik,8,FO,1533874800,93,62.23,-6.59,48.2,6.93
4035715,Avarua,20,CK,1533873600,64,-21.21,-159.78,71.6,9.17
3452925,Niteroi,90,BR,1533873600,100,-29.95,-51.16,51.8,13.87
2377457,Nouadhibou,0,MR,1533873600,83,20.93,-17.03,69.8,11.41
1253628,Lata,100,IN,1533876162,100,30.78,78.62,64.55,1.92
5961417,Husavik,0,CA,1533876163,78,50.56,-96.99,66.71,6.06
1068670,Bealanana,0,MG,1533876164,56,-14.54,48.75,67.16,7.74
3661980,Tamandare,48,BR,1533876165,97,-8.28,-70.75,70.04,3.15
2707684,Harnosand,90,SE,1533874800,93,62.63,17.94,59.0,4.7
1519422,Semey,0,KZ,1533876168,26,50.41,80.25,89.39,4.05
3356832,Henties Bay,0,NA,1533875985,100,-22.12,14.28,47.54,8.75
1282256,Hithadhoo,8,MV,1533876171,100,-0.6,73.08,82.64,4.61
2068655,Katherine,0,AU,1533875400,15,-14.47,132.26,89.6,5.82
3690608,Zorritos,36,PE,1533876173,100,-3.68,-80.68,67.52,1.59
2112444,Kamaishi,75,JP,1533873600,59,39.28,141.86,89.6,4.7
2176639,Batemans Bay,24,AU,1533876043,61,-35.71,150.18,61.22,9.98
3374210,Sao Filipe,92,CV,1533876176,100,14.9,-24.5,75.62,6.85
1862505,Hirara,75,JP,1533873600,74,24.8,125.28,89.6,14.99
5882953,Aklavik,90,CA,1533873600,70,68.22,-135.01,42.8,5.82
6176928,Watrous,0,CA,1533876153,57,51.67,-105.46,68.69,5.39
142255,Bafq,0,IR,1533876181,11,31.6,55.4,93.8,3.94
3936456,Lima,8,PE,1533875957,81,-12.06,-77.04,54.11,2.82
5746545,Portland,90,US,1533873360,42,45.52,-122.67,87.8,3.36
2122293,Ozernovskiy,80,RU,1533876184,88,51.5,156.52,55.46,8.41
3899539,Antofagasta,90,CL,1533873600,82,-23.65,-70.4,55.4,2.24
3932145,Pisco,90,PE,1533873600,82,-13.71,-76.2,62.6,3.36
986717,Kruisfontein,92,ZA,1533876187,100,-34.0,24.73,54.11,19.93
1142226,Dawlatabad,0,AF,1533876188,24,36.41,64.91,94.97,6.17
3055827,Asvanyraro,0,HU,1533875400,73,47.83,17.49,73.4,1.12
6355222,Yulara,0,AU,1533875460,8,-25.24,130.99,80.6,17.22
1817968,Anshun,36,CN,1533876192,76,26.25,105.93,82.1,4.38
2126123,Chokurdakh,0,RU,1533876193,70,70.62,147.9,54.74,15.12
88319,Benghazi,0,LY,1533873600,73,32.12,20.07,75.2,23.04
3080538,Zawadzkie,0,PL,1533875400,68,50.61,18.48,71.6,4.7
3453439,Ponta do Sol,36,BR,1533876197,91,-20.63,-46.0,58.61,5.39
1635283,Metro,44,ID,1533876199,77,-5.11,105.31,84.08,5.84
6165406,Thompson,75,CA,1533873600,73,55.74,-97.86,69.8,2.24
2192362,Christchurch,0,NZ,1533873600,58,-43.53,172.64,53.6,5.82
3355672,Luderitz,12,NA,1533875985,95,-26.65,15.16,48.26,11.32
934322,Mahebourg,40,MU,1533873600,73,-20.41,57.7,71.6,6.93
3526564,Jaumave,20,MX,1533876204,96,23.41,-99.38,56.54,1.92
4372777,Vardo,1,US,1533874500,69,39.62,-77.74,78.8,3.71
3220813,Wanning,75,AT,1533874800,77,48.64,13.53,68.0,4.7
3461425,Ilhabela,0,BR,1533876208,100,-23.78,-45.36,67.34,13.33
1805179,Jiujiang,36,CN,1533876209,72,29.73,115.99,91.01,5.95
1244926,Hambantota,20,LK,1533876210,83,6.12,81.12,84.26,16.8
1690438,San Andres,80,PH,1533876211,98,13.32,122.68,83.0,24.74
1486910,Komsomolskiy,92,RU,1533876212,100,67.55,63.78,49.61,8.75
4676740,Brownsville,1,US,1533873180,83,25.91,-97.49,84.2,11.41
7626370,Bud,75,NO,1533874800,87,62.91,6.91,57.2,8.05
2065594,Mount Isa,0,AU,1533875400,13,-20.73,139.49,86.0,9.17
3031582,Saint-Augustin,44,FR,1533875400,93,44.83,-0.61,55.4,2.24
2685750,Ostersund,92,SE,1533874800,93,63.18,14.64,53.6,4.7
1151074,Prachuap Khiri Khan,92,TH,1533876221,93,11.81,99.79,75.62,7.74
1268015,Kannangad,92,IN,1533876222,100,12.31,75.11,73.91,6.73
5955902,Fort Nelson,75,CA,1533873600,60,58.81,-122.69,71.6,3.36
2160517,Launceston,90,AU,1533875400,58,-41.43,147.14,57.2,27.51
1501377,Kungurtug,0,RU,1533876228,46,50.6,97.53,66.53,3.49
3981345,Topolobampo,20,MX,1533876229,79,25.6,-109.05,83.63,6.85
3466165,Cidreira,92,BR,1533876230,100,-30.17,-50.22,52.13,21.61
5972291,Havre-Saint-Pierre,90,CA,1533874260,93,50.23,-63.6,60.8,6.93
6174457,Virden,0,CA,1533876234,77,49.85,-100.93,64.55,2.59
3979819,Zacualpan,75,MX,1533872580,88,21.25,-105.17,80.6,2.82
2255564,Ouesso,68,CG,1533876236,95,1.61,16.05,73.64,2.71
5648657,Dillon,1,US,1533873180,29,45.22,-112.64,66.2,6.93
1276720,Batala,20,IN,1533873600,79,31.82,75.2,87.8,4.61
6255012,Flinders,0,AU,1533873600,34,-34.58,150.85,68.0,12.75
2156643,Mount Gambier,92,AU,1533876240,100,-37.83,140.78,50.87,4.72
338345,Edd,12,ER,1533876241,27,13.93,41.69,96.23,3.71
498817,Saint Petersburg,0,RU,1533873600,68,59.94,30.32,71.6,8.95
154097,Mgandu,0,TZ,1533876244,72,-5.96,34.11,62.66,9.08
3190865,Krivodol,0,HR,1533875400,69,43.64,16.81,75.2,3.36
3357247,Gobabis,0,NA,1533875985,48,-22.45,18.97,34.04,14.9
3533462,Acapulco,40,MX,1533872820,83,16.86,-99.88,82.4,4.7
3843123,Neuquen,0,AR,1533873600,46,-38.95,-68.06,44.6,6.93
3694112,Paita,0,PE,1533876249,93,-5.09,-81.11,61.13,4.61
2160063,Codrington,68,AU,1533876250,69,-28.95,153.24,63.11,2.93
3970634,Cardenas,40,MX,1533872940,74,27.62,-110.24,84.2,7.18
1500933,Labytnangi,68,RU,1533876253,75,66.66,66.39,58.7,14.23
3141667,Roald,75,NO,1533874800,87,62.58,6.12,57.2,11.41
3443061,Chuy,76,UY,1533876255,94,-33.69,-53.46,50.87,26.64
3665202,Aripuana,92,BR,1533876256,40,-9.17,-60.63,87.68,4.38
2264923,Peniche,0,PT,1533875400,77,39.36,-9.38,62.6,16.11
2063036,Port Lincoln,88,AU,1533876258,100,-34.72,135.86,53.21,11.43
2136150,Luganville,20,VU,1533876260,100,-15.51,167.18,77.33,9.08
1226260,Trincomalee,68,LK,1533876261,50,8.58,81.23,91.37,20.6
2189343,Kaeo,88,NZ,1533876050,82,-35.1,173.78,53.21,3.04
3839479,Rafaela,0,AR,1533876126,82,-31.25,-61.49,34.67,2.93
6050066,La Ronge,90,CA,1533873600,73,55.1,-105.3,71.6,5.82
4174715,Tallahassee,1,US,1533874500,100,30.44,-84.28,78.8,5.28
5861897,Fairbanks,90,US,1533873480,41,64.84,-147.72,60.8,8.05
779622,Havoysund,75,NO,1533874800,100,71.0,24.66,50.0,1.12
2128815,Obihiro,75,JP,1533873600,88,42.92,143.2,73.4,4.7
3172402,Nago,0,IT,1533874800,88,45.88,10.89,68.0,4.7
3835994,Santa Rosa,20,AR,1533876034,91,-36.62,-64.29,36.02,8.63
3372472,Vila Franca do Campo,20,PT,1533875400,82,37.72,-25.43,68.0,2.24
1490256,Talnakh,92,RU,1533876275,91,69.49,88.39,50.69,13.56
2156927,Moree,0,AU,1533876276,67,-29.46,149.84,62.84,9.75
6320062,Vila Velha,75,BR,1533873600,88,-3.71,-38.6,77.0,11.41
2208248,Kaitangata,0,NZ,1533876278,86,-46.28,169.85,44.75,3.38
2733851,Soure,0,PT,1533873600,93,40.06,-8.63,57.2,3.36
1504075,Kazachinskoye,0,RU,1533876280,59,57.69,93.28,76.61,4.05
1651810,Same,76,TL,1533876282,45,-9.0,125.65,83.27,1.36
1255364,Dumas,68,IN,1533876283,100,21.09,72.71,80.3,14.0
70979,Sayyan,0,YE,1533876021,37,15.17,44.32,72.74,3.6
7671223,Kloulklubed,75,PW,1533873000,74,7.04,134.26,86.0,11.41
2293801,Yendi,100,GH,1533876286,80,9.45,0.0,75.53,5.84
3075356,Horni Jiretin,0,CZ,1533874800,56,50.57,13.55,71.6,9.17
290030,Doha,48,QA,1533876288,79,25.29,51.53,93.53,3.83
5391295,Salinas,90,US,1533874140,93,36.67,-121.66,68.0,11.41
2508813,Adrar,40,DZ,1533873600,18,27.87,-0.29,89.6,9.17
2180815,Tuatapere,0,NZ,1533876292,100,-46.13,167.69,48.08,4.16
2517679,Fortuna,40,ES,1533875400,83,38.18,-1.13,80.6,18.34
2121385,Severo-Kurilsk,48,RU,1533876294,89,50.68,156.12,56.63,4.16
3115824,Muros,0,ES,1533875400,87,42.77,-9.06,53.6,3.36
3397893,Itacoatiara,32,BR,1533876130,86,-3.14,-58.44,78.14,2.15
2017155,Saskylakh,0,RU,1533876297,71,71.97,114.09,71.03,7.96
939270,Witbank,92,ZA,1533876300,93,-25.87,29.23,53.66,14.67
3831208,Qaanaaq,100,GL,1533876301,96,77.48,-69.36,36.74,1.59
2450173,Taoudenni,0,ML,1533876302,50,22.68,-3.98,81.47,4.94
3466594,Cavalcante,76,BR,1533876304,66,-13.79,-47.46,68.69,2.71
3450083,Santa Maria,92,BR,1533876305,98,-29.69,-53.81,46.1,10.98
4032369,Pangai,20,TO,1533873600,73,-19.8,-174.35,73.4,8.05
685981,Manta,0,RO,1533876307,80,45.1,24.1,69.14,5.17
3662761,Porto Walter,76,BR,1533876309,92,-8.27,-72.74,72.74,2.93
2017658,Preobrazheniye,100,RU,1533876035,79,42.9,133.91,68.06,2.59
1578500,Kon Tum,88,VN,1533876311,88,14.36,108.0,72.47,6.4
3697838,Contamana,44,PE,1533876312,94,-7.35,-75.01,72.47,2.15
2520798,Brenes,0,ES,1533875400,72,37.55,-5.87,64.4,3.36
1267390,Kavaratti,80,IN,1533876314,100,10.57,72.64,76.07,9.64
2980080,Saint-Francois,0,FR,1533875400,93,46.42,3.91,55.4,2.82
158214,Kasulu,0,TZ,1533876317,42,-4.57,30.11,67.43,8.41
3123493,Ferrol,8,ES,1533875400,100,43.48,-8.23,53.6,5.82
2338660,Yaan,88,NG,1533876320,99,7.38,8.57,71.39,6.73
4274994,Manhattan,1,US,1533873360,88,39.18,-96.57,75.2,2.71
2654675,Wick,100,GB,1533874800,93,51.45,-2.43,57.2,6.93
32723,Garmsar,0,IR,1533876323,14,35.22,52.34,93.62,4.05
5699404,Scottsbluff,1,US,1533873180,68,41.87,-103.67,69.8,9.17
2742032,Campos,0,PT,1533875400,93,41.54,-8.28,53.6,3.36
909299,Lundazi,0,ZM,1533876327,44,-12.29,33.17,66.71,11.54
6316343,Alta Floresta,12,BR,1533876328,49,-9.87,-56.08,81.83,4.16
3170346,Pombia,40,IT,1533874800,88,45.65,8.63,69.8,9.17
2451185,Sikasso,92,ML,1533876330,94,11.32,-5.68,70.49,8.08
1517637,Ushtobe,0,KZ,1533876332,25,45.25,77.98,94.97,5.17
1714733,Dingle,100,PH,1533876251,87,11.0,122.67,80.48,12.88
2063056,Port Augusta,12,AU,1533873600,24,-32.49,137.76,71.6,20.8
4589590,Totness,1,US,1533874500,88,33.74,-80.8,77.0,4.7
3128760,Barcelona,40,ES,1533875400,78,41.38,2.18,71.6,4.7
1651591,Amahai,92,ID,1533876337,100,-3.31,129.0,77.87,6.29
1637510,Loa Janan,68,ID,1533876339,69,-0.58,117.09,86.87,3.15
1705460,Luba,100,PH,1533876340,95,17.32,120.7,75.44,7.4
141736,Bam,0,IR,1533876345,10,29.11,58.36,96.23,3.6
3631878,Moron,0,VE,1533876347,87,10.49,-68.2,62.57,2.37
3412093,Vestmannaeyjar,0,IS,1533876348,99,63.44,-20.27,46.64,4.05
1731248,Alugan,92,PH,1533876349,82,12.22,125.48,86.87,15.23
3899695,Ancud,64,CL,1533876350,97,-41.87,-73.83,47.27,2.59
3893629,Coquimbo,90,CL,1533873600,93,-29.95,-71.34,51.8,6.93
108410,Riyadh,0,SA,1533873600,16,24.63,46.72,87.8,5.82
1697332,Ocampo,92,PH,1533876355,82,13.56,123.37,84.17,19.26
2757220,Den Helder,40,NL,1533875100,72,52.96,4.76,62.6,16.11
5962442,Goderich,0,CA,1533876060,90,43.74,-81.71,61.13,4.72
2267254,Lagoa,0,PT,1533875400,52,37.14,-8.45,69.8,2.24
2122389,Ossora,92,RU,1533876360,100,59.24,163.07,53.57,11.99
5228673,Huron,1,US,1533873300,82,44.36,-98.21,73.4,3.36
1260206,Pasighat,76,IN,1533876363,81,28.06,95.33,80.12,2.15
1501690,Krutinka,92,RU,1533876364,99,56.01,71.51,65.72,6.73
3083878,Szamotuly,0,PL,1533875400,64,52.61,16.58,73.4,16.11
2145554,Manyana,0,AU,1533873600,34,-35.26,150.51,68.0,12.75
100926,Umm Lajj,0,SA,1533876367,74,25.02,37.27,89.03,3.94
110690,Abha,5,SA,1533873600,82,18.22,42.5,69.8,2.04
2158767,Mareeba,0,AU,1533875400,41,-16.99,145.42,77.0,18.34
1894019,Jiazi,75,CN,1533873600,89,19.61,110.49,84.2,13.42
2122090,Pevek,56,RU,1533876372,100,69.7,170.27,40.16,15.79
1272476,Doda,20,IN,1533876373,73,33.14,75.55,71.57,1.81
3926120,Villa Rica,24,PE,1533876374,97,-10.74,-75.27,63.83,1.36
2160053,Lithgow,20,AU,1533875400,22,-33.48,150.16,75.2,8.05
2446796,Bilma,24,NE,1533876084,42,18.69,12.92,81.83,5.73
6138908,Saint-Philippe,75,CA,1533874500,73,45.36,-73.48,71.6,6.93
610864,Khani,90,GE,1533873600,94,41.96,42.96,69.8,3.36
3981391,Tomatlan,64,MX,1533876380,87,19.93,-105.25,74.45,2.82
172515,Abu Samrah,0,SY,1533876381,50,35.3,37.18,83.27,7.52
2334008,Kontagora,64,NG,1533876382,95,10.4,5.47,71.66,3.27
147425,Neftcala,8,AZ,1533876383,71,39.37,49.25,84.71,21.72
8010472,Belmonte,0,PT,1533876385,66,40.36,-7.35,53.66,7.4
101312,Turayf,0,SA,1533873600,57,31.68,38.65,75.2,3.36
3872175,San Ignacio,0,CL,1533873600,100,-36.8,-72.03,41.0,2.24
86049,Jalu,36,LY,1533876377,27,29.03,21.55,88.76,9.08
4034496,Fare,68,PF,1533876391,95,-16.7,-151.02,80.66,12.21
1511646,Andra,8,RU,1533876392,61,62.52,65.89,63.02,4.05
3909234,Oruro,0,BO,1533876393,100,-17.97,-67.11,28.19,3.6
1516589,Zhezkazgan,75,KZ,1533873600,30,47.8,67.71,80.6,13.42
787487,Poum,0,MK,1533871800,87,41.28,20.71,59.0,4.7
2654728,Bridlington,0,GB,1533873000,81,54.08,-0.19,50.0,1.12
778362,Oksfjord,75,NO,1533874800,100,70.24,22.35,55.4,1.12
1861586,Innoshima,75,JP,1533873600,58,34.28,133.18,86.0,3.36
178522,Voi,64,KE,1533876400,85,-3.4,38.57,65.27,5.39
7626384,Hovd,75,NO,1533874800,93,63.83,10.7,55.4,4.7
2130741,Abashiri,75,JP,1533873600,82,44.01,144.25,68.0,9.17
53654,Mogadishu,92,SO,1533876301,100,2.04,45.34,76.61,16.91
3356213,Khorixas,0,NA,1533876406,75,-20.37,14.96,27.47,3.15
1698289,Pundaguitan,8,PH,1533876409,92,6.37,126.17,86.33,12.44
934479,Grand Gaube,40,MU,1533873600,73,-20.01,57.66,71.6,6.93
2459775,Bougouni,92,ML,1533876411,98,11.42,-7.49,69.23,9.08
1835848,Seoul,40,KR,1533873600,52,37.57,126.98,95.0,10.29
72181,Marzuq,8,YE,1533876279,39,14.4,46.47,84.89,3.71
3665199,Ariquemes,12,BR,1533876415,57,-9.91,-63.03,74.54,4.61
3379316,Bonfim,56,GY,1533876416,84,3.36,-59.84,74.54,3.27
3405924,Beberibe,75,BR,1533873600,88,-4.18,-38.13,77.0,11.41
2715459,Falun,48,SE,1533874800,100,60.61,15.63,55.4,4.94
3156980,Floro,75,NO,1533874800,93,61.6,5.03,55.4,4.7
3460825,Itamarandiba,44,BR,1533876421,89,-17.86,-42.86,61.22,3.15
5895424,Bay Roberts,90,CA,1533875280,93,47.58,-53.28,57.2,14.99
3440963,Progreso,90,UY,1533873600,66,-34.68,-56.22,48.2,23.04
2067089,Maningrida,0,AU,1533876425,64,-12.05,134.23,83.54,11.54
2289049,Ferkessedougou,92,CI,1533876426,98,9.6,-5.2,69.14,6.85
3532499,Tecoanapa,40,MX,1533872820,83,16.99,-99.26,82.4,4.7
1695357,Bani,92,PH,1533876429,100,15.89,120.27,75.35,8.97
5983720,Iqaluit,90,CA,1533873600,93,63.75,-68.52,41.0,17.22
2396253,Tchibanga,12,GA,1533876431,98,-2.92,11.0,64.28,2.71
2191911,Dargaville,24,NZ,1533876433,79,-35.94,173.86,52.94,4.61
2194098,Ahipara,24,NZ,1533876434,95,-35.17,173.16,53.57,3.15
204953,Tshikapa,36,CD,1533876435,89,-6.42,20.79,73.1,1.92
4021858,Guerrero Negro,36,MX,1533876437,95,27.97,-114.04,76.16,2.15
3573374,The Valley,20,AI,1533873600,74,18.22,-63.06,82.4,10.29
3526662,Teya,90,MX,1533872880,83,21.05,-89.07,80.6,5.82
2381334,Atar,20,MR,1533876440,50,20.52,-13.05,77.24,4.38
673392,Mihaileni,0,RO,1533875400,72,47.97,26.15,62.6,5.82
934482,Grand Baie,40,MU,1533873600,73,-20.02,57.58,71.6,6.93
2347758,Bara,56,NG,1533876444,98,10.41,10.6,70.22,5.06
1850144,Nishihara,40,JP,1533873600,59,35.74,139.53,95.0,8.05
2652586,Coleraine,75,GB,1533874800,93,55.13,-6.67,50.0,6.93
3468020,Camapua,0,BR,1533876447,87,-19.53,-54.04,46.19,6.96
2128147,Furano,75,JP,1533873600,83,43.28,142.47,73.4,3.36
6078372,Moose Factory,1,CA,1533873600,93,51.26,-80.61,55.4,5.82
1067565,Beloha,0,MG,1533876388,68,-25.17,45.06,71.48,18.48
1562414,Vung Tau,40,VN,1533875400,74,10.35,107.08,86.0,17.22
5887916,Athabasca,0,CA,1533876456,76,54.72,-113.29,70.04,8.63
3441273,Paso de los Toros,68,UY,1533876457,87,-32.81,-56.52,44.75,11.77
3679130,Puerto Lleras,75,CO,1533873600,48,8.16,-72.46,82.4,24.16
3465769,Conceicao da Barra,20,BR,1533876459,92,-18.59,-39.73,74.27,15.79
1496511,Novyy Urengoy,0,RU,1533876460,79,66.08,76.63,59.06,8.97
2013258,Vrangel,76,RU,1533876461,100,42.73,133.08,66.71,7.4
2240449,Luanda,92,AO,1533876462,97,-8.83,13.24,67.97,4.5
470905,Vuktyl,44,RU,1533876463,58,63.86,57.31,65.45,7.74
2737599,Saldanha,0,PT,1533876465,86,41.42,-6.55,51.14,8.19
3939168,Huarmey,8,PE,1533876466,86,-10.07,-78.15,50.33,3.49
3448903,Sao Joao da Barra,64,BR,1533876467,95,-21.64,-41.05,75.17,21.61
1166652,Sadiqabad,0,PK,1533876468,70,28.31,70.13,95.87,5.61
3448455,Sao Miguel do Araguaia,36,BR,1533876470,90,-13.28,-50.16,69.86,2.59
690509,Valky,0,UA,1533873600,59,49.83,35.6,60.8,4.47
1337613,Kulhudhuffushi,24,MV,1533876473,100,6.62,73.07,82.46,11.32
2036892,Hohhot,0,CN,1533873600,51,40.81,111.65,84.2,4.47
789988,Mana,0,RS,1533875400,93,43.52,20.24,64.4,1.12
3689325,Mutis,88,CO,1533876476,100,6.23,-77.4,77.51,4.16
5493811,Taos,40,US,1533874500,93,36.41,-105.57,55.4,3.36
687652,Zarichne,0,UA,1533876478,63,51.81,26.13,69.95,10.65
110690,Faya,5,SA,1533873600,82,18.39,42.45,69.8,6.06
5859699,College,90,US,1533873480,41,64.86,-147.8,60.8,8.05
5942913,Dryden,1,CA,1533873600,60,49.79,-92.84,69.8,2.37
4069458,Wagar,20,US,1533876484,79,31.44,-87.99,78.86,4.83
3138076,Snasa,0,NO,1533874800,87,64.25,12.38,55.4,10.29
3608828,Iralaya,0,HN,1533876486,84,15.0,-83.23,82.01,9.19
1082243,Ambilobe,48,MG,1533876487,55,-13.19,49.05,78.77,17.13
2873499,Mariental,20,DE,1533876488,67,52.28,10.99,63.56,21.5
3583178,San Vicente,20,SV,1533873000,88,13.64,-88.78,82.4,4.7
477940,Ust-Tsilma,92,RU,1533876492,93,65.44,52.15,62.03,11.43
3556334,Jatibonico,0,CU,1533876493,96,21.94,-79.17,73.19,3.15
5954718,Flin Flon,24,CA,1533876494,70,54.77,-101.88,70.94,2.59
1648186,Bontang,48,ID,1533876497,85,0.12,117.47,85.16,4.94
525426,Sobolevo,0,RU,1533876498,69,54.43,31.9,70.04,8.52
5563397,Eureka,90,US,1533875700,100,40.8,-124.16,53.6,4.16
1786538,Yining,48,CN,1533876502,71,29.04,114.56,88.49,3.38
2173323,Bundaberg,0,AU,1533876503,88,-24.87,152.35,69.59,12.1
2152659,Port Macquarie,0,AU,1533873600,35,-31.43,152.91,69.8,13.87
2012530,Zhigansk,48,RU,1533876358,46,66.77,123.37,70.94,3.04
2641598,Newport,100,GB,1533874800,93,51.59,-3.0,57.2,6.93
3929607,San Jeronimo,0,PE,1533876508,98,-13.65,-73.37,32.06,1.92
2158744,Margate,75,AU,1533875400,41,-43.03,147.26,60.8,33.33
5749352,Roseburg,1,US,1533873360,42,43.22,-123.34,86.0,4.7
4267710,Sitka,0,US,1533876514,73,37.17,-99.65,69.86,2.93
2171722,Charters Towers,0,AU,1533876515,62,-20.07,146.27,70.31,7.18
2171465,Clarence Town,0,AU,1533875400,24,-32.59,151.78,71.6,9.17
3430443,Necochea,12,AR,1533876517,97,-38.55,-58.74,39.89,6.51
667306,Sfantu Gheorghe,0,RO,1533875400,77,44.65,26.83,66.2,4.7
3382160,Cayenne,0,GF,1533873600,100,4.94,-52.33,75.2,6.73
1267745,Kariapatti,75,IN,1533875400,55,9.68,78.1,87.8,5.82
3698359,Chicama,90,PE,1533873600,88,-7.84,-79.15,62.6,5.82
1177446,Gwadar,12,PK,1533876523,84,25.12,62.33,84.98,5.73
2524393,Licata,0,IT,1533876524,85,37.11,13.95,76.7,4.16
3601402,Savannah Bight,0,HN,1533876525,92,16.45,-85.85,84.17,15.23
3176748,Forio,0,IT,1533874800,83,40.73,13.86,75.2,2.24
2392204,Parakou,80,BJ,1533876514,98,9.34,2.63,69.59,4.38
542463,Krasnoarmeysk,0,RU,1533873600,77,56.12,38.15,60.8,4.47
1127110,Sar-e Pul,0,AF,1533876529,28,36.22,65.93,84.89,3.15
901344,Sokoni,0,CD,1533876530,41,-12.89,28.78,62.93,6.4
4034551,Faanui,88,PF,1533876261,93,-16.48,-151.75,82.19,9.64
6166142,Thunder Bay,20,CA,1533873600,100,48.41,-89.26,60.8,1.48
1859964,Kaseda,75,JP,1533873600,58,31.42,130.32,87.8,8.05
2173911,Broken Hill,0,AU,1533876397,44,-31.97,141.45,66.35,23.85
2986109,Pont-Saint-Esprit,0,FR,1533875400,82,44.25,4.65,66.2,14.99
2172797,Cairns,0,AU,1533875400,41,-16.92,145.77,77.0,18.34
155016,Malinyi,0,TZ,1533876540,55,-8.94,36.14,69.59,1.25
906221,Mkushi,0,ZM,1533876542,60,-13.61,29.4,59.42,10.09
286987,Nizwa,76,OM,1533876543,25,22.93,57.53,95.51,4.27
2295517,Savelugu,92,GH,1533876544,86,9.63,-0.83,75.08,6.62
1804169,Lengshuijiang,24,CN,1533876545,74,27.66,111.45,88.76,3.94
3093902,Lask,0,PL,1533875400,82,51.59,19.13,68.0,5.82
7176038,Jerome,1,US,1533875700,59,34.75,-112.11,69.8,6.93
1269655,Itanagar,90,IN,1533873600,74,27.1,93.63,87.8,6.93
4167694,Panama City,1,US,1533873360,78,30.16,-85.65,82.4,8.05
3711668,Jimenez,48,PA,1533876551,100,8.54,-82.37,71.93,2.71
6113406,Prince Rupert,90,CA,1533875460,93,54.32,-130.32,60.8,4.7
2063604,Pemberton,92,AU,1533876553,69,-34.44,116.03,54.83,14.9
1850144,Kita,40,JP,1533873600,79,35.76,139.74,95.0,14.99
2729907,Longyearbyen,75,NO,1533874800,87,78.22,15.63,42.8,9.17
3393692,Itarema,44,BR,1533876556,90,-2.92,-39.92,75.62,11.99
3389822,Salinopolis,92,BR,1533876557,94,-0.61,-47.36,80.93,10.98
5866063,Kenai,1,US,1533873360,59,60.55,-151.26,64.4,10.29
3160100,Beian,75,NO,1533874800,87,63.66,9.57,55.4,3.36
3836669,San Rafael,0,AR,1533876471,72,-34.61,-68.33,29.63,3.6
2059470,Victor Harbor,75,AU,1533875940,87,-35.55,138.62,53.6,14.99
1625929,Sungaipenuh,44,ID,1533876312,61,-2.08,101.38,79.49,0.02
2246901,Oussouye,40,SN,1533873600,94,12.49,-16.54,78.8,9.17
3404558,Cabedelo,75,BR,1533873600,94,-6.97,-34.84,71.6,3.36
4736134,Texas City,1,US,1533875700,78,29.38,-94.9,86.0,4.7
6537752,Terrasini,0,IT,1533874800,78,38.15,13.08,75.2,3.36
6111862,Port Hardy,40,CA,1533873600,77,50.7,-127.42,64.4,5.82
1706889,Puro,92,PH,1533876571,84,13.13,123.76,82.28,16.91
1278774,Amlagora,12,IN,1533876572,93,22.83,87.35,88.04,4.94
2488835,Medea,40,DZ,1533875400,88,36.27,2.77,71.6,2.15
3466703,Castro Alves,20,BR,1533876576,96,-12.76,-39.43,62.66,2.59
1056899,Sambava,76,MG,1533876577,100,-14.27,50.17,73.55,22.5
2208791,Yafran,0,LY,1533876578,60,32.06,12.53,70.13,2.82
2447513,Arlit,8,NE,1533876579,96,18.74,7.39,73.19,6.51
1278510,Anupgarh,68,IN,1533876580,65,29.19,73.21,94.25,4.72
2181625,Te Anau,0,NZ,1533876581,98,-45.41,167.72,38.45,2.37
3350246,Catumbela,0,AO,1533876583,90,-12.43,13.55,59.69,3.15
3028690,Cappelle-la-Grande,20,FR,1533874800,76,51.0,2.37,55.4,14.99
4465088,Elizabeth City,1,US,1533874800,94,36.3,-76.22,82.4,2.37
64814,Bandarbeyla,20,SO,1533876588,81,9.49,50.81,81.83,28.54
73560,Lahij,0,YE,1533876353,45,13.06,44.88,88.13,3.15
2271968,Aljezur,0,PT,1533876590,97,37.31,-8.8,63.56,18.48
5826027,Gillette,1,US,1533873180,52,44.29,-105.5,64.4,6.93
962367,Richards Bay,20,ZA,1533876592,90,-28.77,32.06,62.84,14.12
58933,Garowe,76,SO,1533876593,45,8.41,48.48,80.84,20.94
5847411,Kahului,90,US,1533876000,94,20.89,-156.47,77.0,10.29
209598,Manono,0,CD,1533876596,52,-7.3,27.4,75.89,3.38
2297810,Mumford,76,GH,1533876597,93,5.26,-0.76,73.55,8.97
6693679,Gizo,40,IL,1533873000,78,31.8,34.94,80.6,5.82
1488903,Turukhansk,76,RU,1533876387,97,65.8,87.96,53.03,7.96
204318,Wamba,68,CD,1533876600,97,2.14,27.99,68.15,2.93
1563281,Tuy Hoa,48,VN,1533876601,71,13.08,109.3,88.31,19.71
1159716,Sarakhs,0,TM,1533873600,27,36.54,61.16,89.6,9.17
2090021,Namatanai,68,PG,1533876604,99,-3.66,152.44,82.64,10.65
3013748,Hauterive,20,FR,1533875400,87,46.09,3.45,55.4,1.12
342711,Barentu,24,ER,1533876606,97,15.11,37.59,71.57,4.05
933685,Kanye,76,BW,1533876607,26,-24.98,25.34,61.49,14.45
609919,Kuryk,20,KZ,1533876608,92,43.18,51.68,71.21,17.25
3424941,Miquelon,92,PM,1533876610,88,47.1,-56.38,61.94,20.94
486186,Suoyarvi,12,RU,1533876612,63,62.08,32.35,76.34,5.95
4120323,Magnolia,1,US,1533875700,88,33.27,-93.24,80.6,2.26
1528998,Yumen,8,CN,1533876614,31,40.29,97.04,88.67,3.15
2014624,Udachnyy,92,RU,1533876615,70,66.42,112.4,57.53,3.27
2373526,Catio,92,GW,1533876616,97,11.28,-15.25,72.47,4.83
1899102,Nagato,20,JP,1533873600,70,34.35,131.14,87.8,4.7
3133895,Tromso,75,NO,1533874800,81,69.65,18.96,53.6,14.99
3871336,Santiago,0,CL,1533873600,66,-33.44,-70.65,55.4,4.7
1855612,Nara,75,JP,1533873600,62,34.68,135.8,91.4,1.12
2082539,Merauke,88,ID,1533876623,66,-8.49,140.4,85.79,10.76
1650434,Bambanglipuro,64,ID,1533876624,57,-7.95,110.28,84.08,11.21
778707,Mehamn,90,NO,1533873000,100,71.03,27.85,50.0,2.24
3395062,Maues,32,BR,1533876628,87,-3.38,-57.72,77.69,2.37
926747,Mchinji,0,MW,1533876629,61,-13.8,32.89,58.52,5.61
3516149,Tecolutilla,68,MX,1533876630,96,18.28,-93.32,73.64,4.27
5488598,Ruidoso,40,US,1533874500,63,33.33,-105.67,78.8,5.82
924572,Nsanje,32,MZ,1533876632,84,-16.92,35.26,70.13,5.84
5919850,Chapais,1,CA,1533873600,87,49.78,-74.86,51.8,4.7
140463,Birjand,0,IR,1533873600,22,32.86,59.22,80.6,9.17
3397967,Itaituba,32,BR,1533876636,76,-4.26,-55.99,76.97,4.61
2657928,Zermatt,80,CH,1533874800,72,46.02,7.75,62.6,6.93
4013704,Laguna,40,MX,1533872940,74,27.52,-110.01,84.2,2.37
2112802,Hasaki,20,JP,1533873600,59,35.73,140.83,91.4,8.05
94298,Kifri,0,IQ,1533876641,19,34.69,44.96,97.49,5.39
749747,Ayan,0,TR,1533876642,67,40.67,33.6,63.83,3.15
2032614,Baruun-Urt,100,MN,1533876644,100,46.68,113.28,62.39,7.4
2400578,Fougamou,48,GA,1533876645,87,-1.22,10.59,70.76,2.59
5268986,River Falls,1,US,1533875700,88,44.86,-92.63,77.0,2.93
2034761,Shulan,88,CN,1533876647,95,44.41,126.94,71.12,4.16
2063042,Port Hedland,0,AU,1533875400,30,-20.31,118.58,82.4,14.99
2253354,Dakar,40,SN,1533873600,78,14.69,-17.45,80.6,11.41
2447416,Ayorou,8,NE,1533876650,91,14.73,0.92,73.37,7.07
4951594,Southbridge,1,US,1533873360,73,42.08,-72.03,75.2,10.29
5380437,Pacific Grove,1,US,1533875700,63,36.62,-121.92,64.4,10.29
4004898,Hermosillo,40,MX,1533872400,79,29.09,-110.96,86.0,4.72
5428504,Limon,1,US,1533873300,77,39.26,-103.69,62.6,3.6
4167102,Orange Park,1,US,1533875700,94,30.17,-81.71,80.6,5.82
1831125,Kampong Thum,92,KH,1533876657,100,12.71,104.89,77.78,8.19
3686513,Cordoba,0,CO,1533876658,86,5.59,-73.79,43.13,2.37
3037899,Ambon,0,FR,1533875400,93,47.55,-2.56,51.8,3.36
4802316,Clarksburg,1,US,1533874500,100,39.28,-80.34,69.8,3.04
496285,Severodvinsk,20,RU,1533873600,68,64.56,39.82,71.6,15.66
2035836,Manzhouli,88,CN,1533876663,44,49.6,117.43,76.7,6.29
3694725,Moche,90,PE,1533873600,88,-8.17,-79.01,62.6,5.82
6078447,Morden,1,CA,1533874500,100,49.19,-98.1,66.2,4.72
876177,Luau,0,CD,1533876666,43,-10.7,22.23,63.47,3.71
2033423,Yebaishou,0,CN,1533876668,78,41.4,119.64,81.56,4.05
